{
  "favorite_spots": [
    {
      "name": "La Jolla Shores",
      "latitude": 32.858119,
      "longitude": -117.256714,
      "description": "Where we had our first hang out on the wet cold sand and where we had our first kiss!"
    },
    {
      "name": "Mt Soledad",
      "latitude": 32.839711,
      "longitude": -117.246893,
      "description": "Where we had our first emotional talk and I felt safe with you and knew you'd accept me for me. ðŸ’™"
    },
    {
      "name": "La Jolla Blue",
      "latitude": 32.862639,
      "longitude": -117.229001,
      "description": "ikyky ;)"
    },
    {
      "name": "Target - Clairemont",
      "latitude": 32.82171,
      "longitude": -117.178502,
      "description": "Pinkity Drinkity and Shopping at Target. I promise I'll always go shopping with you."
    },
    {
      "name": "That Hike",
      "latitude": 32.945485,
      "longitude": -117.254283,
      "description": "Pink gymshark fit and hiking with my favorite person ever. \n Feb 24 2024"
    },
    {
      "name": "Annie's Canyon",
      "latitude": 33.004814,
      "longitude": -117.263834,
      "description": "Instagram Hike that we finally got to do!"
    },
    {
      "name": "YT House",
      "latitude": 32.806288,
      "longitude": -117.186303,
      "description": "Frat Wedding!!! You were so eepy but you powered through! \n I love you so much"
    },
    {
      "name": "Kate Sessions",
      "latitude": 32.811293,
      "longitude": -117.237063,
      "description": "Where I got the privledge of being your boyfriend. \n Our favorite Picnic Spot!! \n I love watching the sunset with you and our shark-cooch boards."
    },
    {
      "name": "In N Out",
      "latitude": 32.808851,
      "longitude": -117.21872,
      "description": "In N Out \n Big Backs foreva! \n On deck: Cheesburger animal style, fries, animal style, and a pink lemonade."
    },
    {
      "name": "Canyon Park Apartments",
      "latitude": 32.880917,
      "longitude": -117.21659,
      "description": "Gotta shout out Canyon Park and all the meals we cooked here together. ðŸ’™ (mainly you)\n Also our obsession with hot pot."
    },
    {
      "name": "Dennys",
      "latitude": 32.832427,
      "longitude": -117.201849,
      "description": "Where we shared our first meal together. :) Berry Stuffed French Toast \n Shoutout the time you took me here after an open."
    },
    {
      "name": "Ototo Sushi",
      "latitude": 32.818832,
      "longitude": -117.178827,
      "description": "I think this is our go to sushi spot now. Very yummy and near sweet treat places."
    },
    {
      "name": "Geisel Library",
      "latitude": 32.880799,
      "longitude": -117.237564,
      "description": "A lot of time spent here, both productive and unproductive, but time spent together is always worth it. \n RIP my goldfish extra cheddar"
    }
  ]
}
